Latitude,Longitude,Stop Name,Stop Status
40.695984,-73.991033,CADMAN PZ W/TILLARY ST,at stop
40.689032,-73.981268,FULTON ST/FLATBUSH AV EXT,at stop
40.687599,-73.93858,GATES AV/MARCUS GARVEY BL,at stop
40.695525,-73.916144,GATES AV/WILSON AV,at stop
40.685744,-73.954697,GATES AV/BEDFORD AV,approaching
40.695714,-73.915958,GATES AV/WILSON AV,approaching
40.686486,-73.967765,GREENE AV/VANDERBILT AV,approaching
40.687001,-73.943763,GATES AV/TOMPKINS AV,approaching
40.685998,-73.972007,GREENE AV/ADELPHI ST,< 1 stop away
40.694115,-73.989067,ADAMS ST/BKLYN SUPREME CRT,< 1 stop away
40.689115,-73.925371,GATES AV/PATCHEN AV,< 1 stop away
40.686685,-73.966031,GREENE AV/VANDERBILT AV,< 1 stop away
